[
 {
   "name": "Atlanta Braves",
   "city": "Cumberland, GA",
   "region": "East",
   "league": "National League",
   "latitude": 33.89,
   "longitude": -84.468,
   "stadium": "img/truistpark.jpg"
 },
 {
   "name": "Miami Marlins",
   "city": "Miami, FL",
   "region": "East",
   "league": "National League",
   "latitude": 25.778056,
   "longitude": -80.219722,
   "stadium": "img/marlinspark.jpg"
 },
 {
   "name": "New York Mets",
   "city": "New York, NY",
   "region": "East",
   "league": "National League",
   "latitude": 40.756944,
   "longitude": -73.845833,
   "stadium": "img/citifield.jpg"
 },
 {
   "name": "Philadelphia Phillies",
   "city": "Philadelphia, PA",
   "region": "East",
   "league": "National League",
   "latitude": 39.905833,
   "longitude": -75.166389,
   "stadium": "img/citizensbankpark.jpg"
 },
 {
   "name": "Washington Nationals",
   "city": "Washington, DC",
   "region": "East",
   "league": "National League",
   "latitude": 38.872778,
   "longitude": -77.0075,
   "stadium": "img/natlspark.jpg"
 },
 {
   "name": "Chicago Cubs",
   "city": "Chicago, IL",
   "region": "Central",
   "league": "National League",
   "latitude": 41.948038,
   "longitude": -87.65568,
   "stadium": "img/wrigleyfield.jpg"
 },
 {
   "name": "Cincinnati Reds",
   "city": "Cincinnati, OH",
   "region": "Central",
   "league": "National League",
   "latitude": 39.0975,
   "longitude": -84.506667,
   "stadium": "img/greatballpark.jpg"
 },
 {
   "name": "Milwaukee Brewers",
   "city": "Milwaukee, WI",
   "region": "Central",
   "league": "National League",
   "latitude": 43.028333,
   "longitude": -87.971111,
   "stadium": "img/millerpark.jpg"
 },
 {
   "name": "Pittsburgh Pirates",
   "city": "Pittsburgh, PA",
   "region": "Central",
   "league": "National League",
   "latitude": 40.446944,
   "longitude": -80.005833,
   "stadium": "img/pncpark.jpg"
 },
 {
   "name": "St. Louis Cardinals",
   "city": "St. Louis, MO",
   "region": "Central",
   "league": "National League",
   "latitude": 38.6225,
   "longitude": -90.193056,
   "stadium": "img/buschstadium.jpg"
 },
 {
   "name": "Arizona Diamondbacks",
   "city": "Phoenix, AZ",
   "region": "West",
   "league": "National League",
   "latitude": 33.445278,
   "longitude": -112.066944,
   "stadium": "img/chasefield.jpg"
 },
 {
   "name": "Colorado Rockies",
   "city": "Denver, CO",
   "region": "West",
   "league": "National League",
   "latitude": 39.756111,
   "longitude": -104.994167,
   "stadium": "img/coorsfield.jpg"
 },
 {
   "name": "Los Angeles Dodgers",
   "city": "Los Angeles, CA",
   "region": "West",
   "league": "National League",
   "latitude": 34.073611,
   "longitude": -118.24,
   "stadium": "img/dodgerstadium.jpg"
 },
 {
   "name": "San Diego Padres",
   "city": "San Diego, CA",
   "region": "West",
   "league": "National League",
   "latitude": 32.7073,
   "longitude": -117.1566,
   "stadium": "img/petcopark.jpg"
 },
 {
   "name": "San Francisco Giants",
   "city": "San Francisco, CA",
   "region": "West",
   "league": "National League",
   "latitude": 37.778611,
   "longitude": -122.389167,
   "stadium": "img/oraclepark.jpg"
 },
 {
   "name": "Baltimore Orioles",
   "city": "Baltimore, MD",
   "region": "East",
   "league": "American League",
   "latitude": 39.283889,
   "longitude": -76.621667,
   "stadium": "img/oriolepark.jpg"
 },
 {
   "name": "Boston Red Sox",
   "city": "Boston, MA",
   "region": "East",
   "league": "American League",
   "latitude": 42.34625,
   "longitude": -71.09775,
   "stadium": "img/fenwaypark.jpg"
 },
 {
   "name": "New York Yankees",
   "city": "New York, NY",
   "region": "East",
   "league": "American League",
   "latitude": 40.829167,
   "longitude": -73.926389,
   "stadium": "img/yankeestadium.jpg"
 },
 {
   "name": "Tampa Bay Rays",
   "city": "St. Petersburg, FL",
   "region": "East",
   "league": "American League",
   "latitude": 27.768333,
   "longitude": -82.653333,
   "stadium": "img/tropicanafield.jpg"
 },
 {
   "name": "Toronto Blue Jays",
   "city": "Toronto, ON",
   "region": "East",
   "league": "American League",
   "latitude": 43.641389,
   "longitude": -79.389167,
   "stadium": "img/rogerscentre.jpg"
 },
 {
   "name": "Chicago White Sox",
   "city": "Chicago, IL",
   "region": "Central",
   "league": "American League",
   "latitude": 41.83,
   "longitude": -87.633889,
   "stadium": "img/guaranteedratefield.jpg"
 },
 {
   "name": "Cleveland Indians",
   "city": "Cleveland, OH",
   "region": "Central",
   "league": "American League",
   "latitude": 41.495833,
   "longitude": -81.685278,
   "stadium": "img/progressivefield.jpg"
 },
 {
   "name": "Detroit Tigers",
   "city": "Detroit, MI",
   "region": "Central",
   "league": "American League",
   "latitude": 42.339167,
   "longitude": -83.048611,
   "stadium": "img/comericapark.jpg"
 },
 {
   "name": "Kansas City Royals",
   "city": "Kansas City, MO",
   "region": "Central",
   "league": "American League",
   "latitude": 39.051,
   "longitude": -94.48,
   "stadium": "img/kauffmanstadium.jpg"
 },
 {
   "name": "Minnesota Twins",
   "city": "Minneapolis, MN",
   "region": "Central",
   "league": "American League",
   "latitude": 44.981667,
   "longitude": -93.278333,
   "stadium": "img/targetfield.jpg"
 },
 {
   "name": "Houston Astros",
   "city": "Houston, TX",
   "region": "West",
   "league": "American League",
   "latitude": 29.756944,
   "longitude": -95.355556,
   "stadium": "img/minutemaidpark.jpg"
 },
 {
   "name": "Los Angeles Angels",
   "city": "Anaheim, CA",
   "region": "West",
   "league": "American League",
   "latitude": 33.800278,
   "longitude": -117.882778,
   "stadium": "img/angelstadium.jpg"
 },
 {
   "name": "Oakland Athletics",
   "city": "Oakland, CA",
   "region": "West",
   "league": "American League",
   "latitude": 37.751667,
   "longitude": -122.200556,
   "stadium": "img/oaklandcoliseum.jpg"
 },
 {
   "name": "Seattle Mariners",
   "city": "Seattle, WA",
   "region": "West",
   "league": "American League",
   "latitude": 47.591,
   "longitude": -122.333,
   "stadium": "img/safecofield.jpg"
 },
 {
   "name": "Texas Rangers",
   "city": "Arlington, TX",
   "region": "West",
   "league": "American League",
   "latitude": 32.747361,
   "longitude": -97.084167,
   "stadium": "img/globelifefield.jpg"
 }
]